[
  {
    "id": 3,
    "title": "Badamdar",
    "address": "101, Abbasgulu Abbaszade Street, Badamdar, Sebail Rayonu, Bakü, 1004, Azerbaycan",
    "latitude": 40.35571798310823,
    "longitude": 49.8194843530655,
    "price": 100000.0,
    "description": "god",
    "bedrooms": 3,
    "bathrooms": 3,
    "area": 100,
    "seller_name": "Nurlan Abdullayev",
    "seller_phone": "+994997779089",
    "created_at": "2025-12-07T01:09:05.986787"
  },
  {
    "id": 9,
    "title": "Nəsimi rayonunda yeni tikili",
    "address": "Nizami küçəsi, Nəsimi Rayonu, Bakü, Azerbaycan",
    "latitude": 40.3956,
    "longitude": 49.8512,
    "price": 180000.0,
    "description": "Mərkəzdə yerləşən yeni tikili mənzil",
    "bedrooms": 3,
    "bathrooms": 2,
    "area": 95,
    "seller_name": "Elçin Məmmədov",
    "seller_phone": "+994501234567",
    "created_at": "2025-12-07T04:00:00.000000"
  },
  {
    "id": 10,
    "title": "Səbaildə lüks mənzil",
    "address": "İstiqlaliyyət prospekti, Səbail Rayonu, Bakü, Azerbaycan",
    "latitude": 40.3732,
    "longitude": 49.8378,
    "price": 220000.0,
    "description": "Dənizə yaxın lüks mənzil",
    "bedrooms": 4,
    "bathrooms": 3,
    "area": 150,
    "seller_name": "Aygün Həsənova",
    "seller_phone": "+994502345678",
    "created_at": "2025-12-07T04:01:00.000000"
  },
  {
    "id": 36,
    "title": "Gəncədə mərkəzi mənzil",
    "address": "Məhəmməd Əmin Rəsulzadə küçəsi, Gəncə, Azerbaycan",
    "latitude": 40.6828,
    "longitude": 46.3606,
    "price": 85000.0,
    "description": "Gəncə mərkəzində yerləşən rahat mənzil",
    "bedrooms": 3,
    "bathrooms": 2,
    "area": 90,
    "seller_name": "Rəşad Məmmədov",
    "seller_phone": "+994551234567",
    "created_at": "2025-12-07T05:00:00.000000"
  },
  {
    "id": 37,
    "title": "Gəncədə geniş ev",
    "address": "Nizami küçəsi, Gəncə, Azerbaycan",
    "latitude": 40.6756,
    "longitude": 46.3523,
    "price": 95000.0,
    "description": "Geniş və işıqlı ev",
    "bedrooms": 4,
    "bathrooms": 2,
    "area": 140,
    "seller_name": "Aygün Həsənova",
    "seller_phone": "+994552345678",
    "created_at": "2025-12-07T05:01:00.000000"
  },
  {
    "id": 38,
    "title": "Sumqayıtda modern mənzil",
    "address": "Azadlıq prospekti, Sumqayıt, Azerbaycan",
    "latitude": 40.5897,
    "longitude": 49.6686,
    "price": 78000.0,
    "description": "Yeni tikili modern mənzil",
    "bedrooms": 2,
    "bathrooms": 1,
    "area": 68,
    "seller_name": "Elçin Quliyev",
    "seller_phone": "+994553456789",
    "created_at": "2025-12-07T05:02:00.000000"
  },
  {
    "id": 40,
    "title": "Mingəçevirdə dənizə yaxın mənzil",
    "address": "Dəniz küçəsi, Mingəçevir, Azerbaycan",
    "latitude": 40.7700,
    "longitude": 47.0489,
    "price": 72000.0,
    "description": "Dənizə yaxın rahat mənzil",
    "bedrooms": 2,
    "bathrooms": 1,
    "area": 75,
    "seller_name": "Tural Hüseynov",
    "seller_phone": "+994555678901",
    "created_at": "2025-12-07T05:04:00.000000"
  },
  {
    "id": 42,
    "title": "Lənkəranda dəniz sahilində mənzil",
    "address": "Dəniz prospekti, Lənkəran, Azerbaycan",
    "latitude": 38.7543,
    "longitude": 48.8506,
    "price": 68000.0,
    "description": "Dəniz sahilində gözəl mənzil",
    "bedrooms": 2,
    "bathrooms": 1,
    "area": 70,
    "seller_name": "Ramil Əliyev",
    "seller_phone": "+994557890123",
    "created_at": "2025-12-07T05:06:00.000000"
  },
  {
    "id": 43,
    "title": "Lənkəranda villa",
    "address": "Bağlar küçəsi, Lənkəran, Azerbaycan",
    "latitude": 38.7489,
    "longitude": 48.8456,
    "price": 125000.0,
    "description": "Lüks villa dənizə yaxın",
    "bedrooms": 5,
    "bathrooms": 3,
    "area": 200,
    "seller_name": "Leyla Qasımova",
    "seller_phone": "+994558901234",
    "created_at": "2025-12-07T05:07:00.000000"
  },
  {
    "id": 46,
    "title": "Naxçıvanda tarixi mənzil",
    "address": "Heydər Əliyev prospekti, Naxçıvan, Azerbaycan",
    "latitude": 39.2089,
    "longitude": 45.4122,
    "price": 92000.0,
    "description": "Tarixi mərkəzdə mənzil",
    "bedrooms": 3,
    "bathrooms": 2,
    "area": 95,
    "seller_name": "Rəşad Quliyev",
    "seller_phone": "+994561234567",
    "created_at": "2025-12-07T05:10:00.000000"
  },
  {
    "id": 48,
    "title": "Şəkidə tarixi ev",
    "address": "Qala küçəsi, Şəki, Azerbaycan",
    "latitude": 41.1919,
    "longitude": 47.1706,
    "price": 98000.0,
    "description": "Tarixi mərkəzdə unikal ev",
    "bedrooms": 3,
    "bathrooms": 2,
    "area": 120,
    "seller_name": "Nərgiz Əliyeva",
    "seller_phone": "+994563456789",
    "created_at": "2025-12-07T05:12:00.000000"
  },
  {
    "id": 50,
    "title": "Qəbələdə kurort mənzili",
    "address": "Kurort küçəsi, Qəbələ, Azerbaycan",
    "latitude": 40.9822,
    "longitude": 47.8492,
    "price": 132000.0,
    "description": "Kurort zonasında lüks mənzil",
    "bedrooms": 3,
    "bathrooms": 2,
    "area": 105,
    "seller_name": "Səbinə Məmmədova",
    "seller_phone": "+994565678901",
    "created_at": "2025-12-07T05:14:00.000000"
  },
  {
    "id": 51,
    "title": "Qəbələdə villa",
    "address": "Təbii park küçəsi, Qəbələ, Azerbaycan",
    "latitude": 40.9756,
    "longitude": 47.8423,
    "price": 185000.0,
    "description": "Təbiətə yaxın lüks villa",
    "bedrooms": 5,
    "bathrooms": 3,
    "area": 220,
    "seller_name": "Ramil Əliyev",
    "seller_phone": "+994566789012",
    "created_at": "2025-12-07T05:15:00.000000"
  },
  {
    "id": 53,
    "title": "Qubada dağ evi",
    "address": "Dağlıq prospekti, Quba, Azerbaycan",
    "latitude": 41.3614,
    "longitude": 48.5131,
    "price": 118000.0,
    "description": "Dağlıq ərazidə rahat ev",
    "bedrooms": 4,
    "bathrooms": 2,
    "area": 140,
    "seller_name": "Vüsal Rəhimov",
    "seller_phone": "+994568901234",
    "created_at": "2025-12-07T05:17:00.000000"
  },
  {
    "id": 55,
    "title": "İsmayıllıda ev",
    "address": "Azadlıq küçəsi, İsmayıllı, Azerbaycan",
    "latitude": 40.7847,
    "longitude": 48.1514,
    "price": 95000.0,
    "description": "Rahat və təmiz ev",
    "bedrooms": 3,
    "bathrooms": 2,
    "area": 110,
    "seller_name": "Rəşad Quliyev",
    "seller_phone": "+994570123456",
    "created_at": "2025-12-07T05:19:00.000000"
  },
  {
    "id": 58,
    "title": "Bərdədə ailəvi ev",
    "address": "Azadlıq prospekti, Bərdə, Azerbaycan",
    "latitude": 40.3758,
    "longitude": 47.1261,
    "price": 82000.0,
    "description": "Ailə üçün ideal ev",
    "bedrooms": 3,
    "bathrooms": 2,
    "area": 105,
    "seller_name": "Tural Hüseynov",
    "seller_phone": "+994573456789",
    "created_at": "2025-12-07T05:22:00.000000"
  },
  {
    "id": 60,
    "title": "Yevlaxda mərkəzi mənzil",
    "address": "Heydər Əliyev prospekti, Yevlax, Azerbaycan",
    "latitude": 40.6172,
    "longitude": 47.1500,
    "price": 72000.0,
    "description": "Mərkəzdə rahat mənzil",
    "bedrooms": 2,
    "bathrooms": 1,
    "area": 80,
    "seller_name": "Ramil Əliyev",
    "seller_phone": "+994575678901",
    "created_at": "2025-12-07T05:24:00.000000"
  },
  {
    "id": 62,
    "title": "Gəncədə lüks mənzil",
    "address": "İstiqlaliyyət prospekti, Gəncə, Azerbaycan",
    "latitude": 40.6889,
    "longitude": 46.3689,
    "price": 128000.0,
    "description": "Lüks və modern mənzil",
    "bedrooms": 4,
    "bathrooms": 3,
    "area": 145,
    "seller_name": "Vüsal Rəhimov",
    "seller_phone": "+994577890123",
    "created_at": "2025-12-07T05:26:00.000000"
  },
  {
    "id": 65,
    "title": "Lənkəranda sahil mənzili",
    "address": "Sahil prospekti, Lənkəran, Azerbaycan",
    "latitude": 38.7590,
    "longitude": 48.8556,
    "price": 105000.0,
    "description": "Dəniz sahilində modern mənzil",
    "bedrooms": 3,
    "bathrooms": 2,
    "area": 120,
    "seller_name": "Aygün Həsənova",
    "seller_phone": "+994580123456",
    "created_at": "2025-12-07T05:29:00.000000"
  }
]
